{
  "10333275074": {
    "device_id": "10333275074",
    "name": "小港區山民路",
    "town": "小港區",
    "area": "小港區山民路",
    "areatype": "交通區",
    "lat": 22.5675,
    "lon": 120.3628,
    "hourly_count": 1392,
    "time_start": "2025-12-04 00:00",
    "time_end": "2026-02-04 23:00"
  },
  "10333583306": {
    "device_id": "10333583306",
    "name": "小港區大鵬路",
    "town": "小港區",
    "area": "小港區大鵬路",
    "areatype": "交通區",
    "lat": 22.5647,
    "lon": 120.3586,
    "hourly_count": 1454,
    "time_start": "2025-12-04 00:00",
    "time_end": "2026-02-04 23:00"
  },
  "10333650165": {
    "device_id": "10333650165",
    "name": "小港區中山四路",
    "town": "小港區",
    "area": "小港區中山四路",
    "areatype": "交通區",
    "lat": 22.5689,
    "lon": 120.3433,
    "hourly_count": 1454,
    "time_start": "2025-12-04 00:00",
    "time_end": "2026-02-04 23:00"
  },
  "7477604061": {
    "device_id": "7477604061",
    "name": "林園工業區",
    "town": "林園區",
    "area": "林園工業區",
    "areatype": "工業區",
    "lat": 22.5038,
    "lon": 120.4062,
    "hourly_count": 1445,
    "time_start": "2025-12-04 00:00",
    "time_end": "2026-02-04 23:00"
  },
  "7490249046": {
    "device_id": "7490249046",
    "name": "臨海工業區",
    "town": "林園區",
    "area": "臨海工業區",
    "areatype": "鄰近工業區社區",
    "lat": 22.5073,
    "lon": 120.3683,
    "hourly_count": 1456,
    "time_start": "2025-12-04 00:00",
    "time_end": "2026-02-04 23:00"
  },
  "7477743657": {
    "device_id": "7477743657",
    "name": "大寮區鳳林公路",
    "town": "大寮區",
    "area": "大寮區鳳林公路",
    "areatype": "交通區",
    "lat": 22.6222,
    "lon": 120.3792,
    "hourly_count": 1456,
    "time_start": "2025-12-04 00:00",
    "time_end": "2026-02-04 23:00"
  },
  "7477885991": {
    "device_id": "7477885991",
    "name": "新厝里",
    "town": "大寮區",
    "area": "新厝里",
    "areatype": "一般社區",
    "lat": 22.5776,
    "lon": 120.4087,
    "hourly_count": 1456,
    "time_start": "2025-12-04 00:00",
    "time_end": "2026-02-04 23:00"
  },
  "10332974519": {
    "device_id": "10332974519",
    "name": "前鎮區忠勤路",
    "town": "前鎮區",
    "area": "前鎮區忠勤路",
    "areatype": "交通區",
    "lat": 22.6039,
    "lon": 120.3022,
    "hourly_count": 1454,
    "time_start": "2025-12-04 00:00",
    "time_end": "2026-02-04 23:00"
  },
  "10333088562": {
    "device_id": "10333088562",
    "name": "前鎮區五甲三路",
    "town": "前鎮區",
    "area": "前鎮區五甲三路",
    "areatype": "交通區",
    "lat": 22.5872,
    "lon": 120.323,
    "hourly_count": 1454,
    "time_start": "2025-12-04 00:00",
    "time_end": "2026-02-04 23:00"
  },
  "10333183552": {
    "device_id": "10333183552",
    "name": "前鎮區中山三路",
    "town": "前鎮區",
    "area": "前鎮區中山三路",
    "areatype": "交通區",
    "lat": 22.594,
    "lon": 120.3063,
    "hourly_count": 1447,
    "time_start": "2025-12-04 00:00",
    "time_end": "2026-02-04 23:00"
  },
  "10341609840": {
    "device_id": "10341609840",
    "name": "左營區明誠一路",
    "town": "三民區",
    "area": "左營區明誠一路",
    "areatype": "交通區",
    "lat": 22.6597,
    "lon": 120.3242,
    "hourly_count": 1454,
    "time_start": "2025-12-04 00:00",
    "time_end": "2026-02-04 23:00"
  },
  "10345225379": {
    "device_id": "10345225379",
    "name": "三民區鼎中路",
    "town": "三民區",
    "area": "三民區鼎中路",
    "areatype": "交通區",
    "lat": 22.6711,
    "lon": 120.3208,
    "hourly_count": 1454,
    "time_start": "2025-12-04 00:00",
    "time_end": "2026-02-04 23:00"
  },
  "10374469060": {
    "device_id": "10374469060",
    "name": "鳳山區建國路三段",
    "town": "鳳山區",
    "area": "鳳山區建國路三段",
    "areatype": "交通區",
    "lat": 22.6375,
    "lon": 120.3493,
    "hourly_count": 1450,
    "time_start": "2025-12-04 00:00",
    "time_end": "2026-02-04 23:00"
  },
  "10375654467": {
    "device_id": "10375654467",
    "name": "鳳山區建國路三段",
    "town": "鳳山區",
    "area": "鳳山區建國路三段",
    "areatype": "交通區",
    "lat": 22.6355,
    "lon": 120.3578,
    "hourly_count": 1454,
    "time_start": "2025-12-04 00:00",
    "time_end": "2026-02-04 23:00"
  },
  "10372330843": {
    "device_id": "10372330843",
    "name": "環保署楠梓測站",
    "town": "楠梓區",
    "area": "環保署楠梓測站",
    "areatype": "測站比對",
    "lat": 22.7337,
    "lon": 120.3283,
    "hourly_count": 1454,
    "time_start": "2025-12-04 00:00",
    "time_end": "2026-02-04 23:00"
  },
  "10373520655": {
    "device_id": "10373520655",
    "name": "楠梓區大學二十九路",
    "town": "楠梓區",
    "area": "楠梓區大學二十九路",
    "areatype": "交通區",
    "lat": 22.7237,
    "lon": 120.2774,
    "hourly_count": 1454,
    "time_start": "2025-12-04 00:00",
    "time_end": "2026-02-04 23:00"
  },
  "10381807255": {
    "device_id": "10381807255",
    "name": "仁武區民族一路",
    "town": "仁武區",
    "area": "仁武區民族一路",
    "areatype": "交通區",
    "lat": 22.6971,
    "lon": 120.3225,
    "hourly_count": 1454,
    "time_start": "2025-12-04 00:00",
    "time_end": "2026-02-04 23:00"
  },
  "7492040716": {
    "device_id": "7492040716",
    "name": "仁武工業區",
    "town": "仁武區",
    "area": "仁武工業區",
    "areatype": "工業區",
    "lat": 22.7012,
    "lon": 120.3428,
    "hourly_count": 1456,
    "time_start": "2025-12-04 00:00",
    "time_end": "2026-02-04 23:00"
  },
  "10340307775": {
    "device_id": "10340307775",
    "name": "左營區孔營路",
    "town": "左營區",
    "area": "左營區孔營路",
    "areatype": "交通區",
    "lat": 22.6883,
    "lon": 120.2971,
    "hourly_count": 1453,
    "time_start": "2025-12-04 00:00",
    "time_end": "2026-02-04 23:00"
  },
  "10340422775": {
    "device_id": "10340422775",
    "name": "左營區崇德路",
    "town": "左營區",
    "area": "左營區崇德路",
    "areatype": "交通區",
    "lat": 22.6776,
    "lon": 120.3002,
    "hourly_count": 1454,
    "time_start": "2025-12-04 00:00",
    "time_end": "2026-02-04 23:00"
  },
  "10344263632": {
    "device_id": "10344263632",
    "name": "新興區民生二路",
    "town": "苓雅區",
    "area": "新興區民生二路",
    "areatype": "交通區",
    "lat": 22.6119,
    "lon": 120.3006,
    "hourly_count": 1454,
    "time_start": "2025-12-04 00:00",
    "time_end": "2026-02-04 23:00"
  },
  "10341116655": {
    "device_id": "10341116655",
    "name": "左營區博愛二路",
    "town": "鼓山區",
    "area": "左營區博愛二路",
    "areatype": "交通區",
    "lat": 22.6645,
    "lon": 120.3021,
    "hourly_count": 1454,
    "time_start": "2025-12-04 00:00",
    "time_end": "2026-02-04 23:00"
  },
  "7487221986": {
    "device_id": "7487221986",
    "name": "橋頭工業用地",
    "town": "橋頭區",
    "area": "橋頭工業用地",
    "areatype": "鄰近工業區社區",
    "lat": 22.764412,
    "lon": 120.3019338,
    "hourly_count": 1456,
    "time_start": "2025-12-04 00:00",
    "time_end": "2026-02-04 23:00"
  },
  "12762947205": {
    "device_id": "12762947205",
    "name": "岡山本洲工業區",
    "town": "岡山區",
    "area": "岡山本洲工業區",
    "areatype": "工業區",
    "lat": 22.813565,
    "lon": 120.264578,
    "hourly_count": 1454,
    "time_start": "2025-12-04 00:00",
    "time_end": "2026-02-04 23:00"
  },
  "12763020068": {
    "device_id": "12763020068",
    "name": "岡山本洲工業區",
    "town": "岡山區",
    "area": "岡山本洲工業區",
    "areatype": "工業區",
    "lat": 22.810014,
    "lon": 120.2627176,
    "hourly_count": 1454,
    "time_start": "2025-12-04 00:00",
    "time_end": "2026-02-04 23:00"
  },
  "10372181902": {
    "device_id": "10372181902",
    "name": "路竹區大仁路",
    "town": "路竹區",
    "area": "路竹區大仁路",
    "areatype": "交通區",
    "lat": 22.8718,
    "lon": 120.2651,
    "hourly_count": 1454,
    "time_start": "2025-12-04 00:00",
    "time_end": "2026-02-04 23:00"
  },
  "7490689726": {
    "device_id": "7490689726",
    "name": "鳳雄里",
    "town": "燕巢區",
    "area": "鳳雄里",
    "areatype": "一般社區",
    "lat": 22.7614,
    "lon": 120.3597,
    "hourly_count": 1456,
    "time_start": "2025-12-04 00:00",
    "time_end": "2026-02-04 23:00"
  },
  "7478714726": {
    "device_id": "7478714726",
    "name": "大社工業區",
    "town": "大社區",
    "area": "大社工業區",
    "areatype": "工業區",
    "lat": 22.7248,
    "lon": 120.3369,
    "hourly_count": 1456,
    "time_start": "2025-12-04 00:00",
    "time_end": "2026-02-04 23:00"
  }
}